[
  {
    "id": 1,
    "name": "Відділення №1 (Київ)",
    "city": "Київ",
    "region": "м. Київ",
    "address": "вул. Хрещатик, 10",
    "latitude": 50.4501,
    "longitude": 30.5234
  },
  {
    "id": 2,
    "name": "Відділення №2 (Київ)",
    "city": "Київ",
    "region": "м. Київ",
    "address": "вул. Володимирська, 50",
    "latitude": 50.4450,
    "longitude": 30.5150
  },
  {
    "id": 3,
    "name": "Відділення №3 (Львів)",
    "city": "Львів",
    "region": "Львівська область",
    "address": "пл. Ринок, 1",
    "latitude": 49.8429,
    "longitude": 24.0311
  },
  {
    "id": 4,
    "name": "Відділення №4 (Одеса)",
    "city": "Одеса",
    "region": "Одеська область",
    "address": "вул. Дерибасівська, 1",
    "latitude": 46.4825,
    "longitude": 30.7233
  },
  {
    "id": 5,
    "name": "Відділення №5 (Харків)",
    "city": "Харків",
    "region": "Харківська область",
    "address": "пр. Науки, 10",
    "latitude": 50.0050,
    "longitude": 36.2290
  },
  {
    "id": 6,
    "name": "Відділення №6 (Дніпро)",
    "city": "Дніпро",
    "region": "Дніпропетровська область",
    "address": "пр. Дмитра Яворницького, 40",
    "latitude": 48.4647,
    "longitude": 35.0461
  }
]
